{
  "status": 1,
  "name": "一公里生活演示",
  "floor": [
    {
      "id": "1",
      "index": 1,
      "name": "街道信息",
      "short_name": "",
      "photo": [
        {
          "id": "1",
          "index": 0,
          "name": "“棋”乐融融幸福家庭棋牌赛",
          "pic": "1.png",
          "content": "<p>7月30日，小菊社区举办了第五届“棋”乐融融幸福家庭棋牌赛。还不到9点钟，20多名参加比赛的孩子就早早到了居委会，9点半比赛正式开始，小棋手们凝神静气，在无声的棋盘上进行着激烈地角逐，“出车、跳马、飞象、上士”，你来我挡、见招拆招，一时间硝烟弥漫，通过激烈的厮杀，在这场斗智斗勇的比赛中，有的选手潇洒自若、胸有成竹；有的托腮凝目、冥思苦想。经过1个多小时的角逐，分别决出了象棋、围棋、跳棋、五子棋的各类奖项，大家在比赛中也获得了无限的欢乐。</p><p>通过此次比赛，小棋手们不仅切磋了棋艺，还享受了智力体育带来的快乐，为孩子们无聊的暑期增添了不少乐趣，也为他们提供了一个展示自我、互相交流的舞台。</p>"
        },
        {
          "id": "2",
          "index": 1,
          "name": "北新桥社区举办“建党94周年”活动",
          "pic": "2.png",
          "content": "<p>参加此次活动有区老干部书画会、区红十字会、东直门医院等驻街单位为党员、老干部、居民、残疾人等。老干部为居民当场书写了歌颂党的优美诗句，得到了党员、居民的青睐；社区文化团队表演了歌舞，《没有共产党就没有新中国》、《浏阳河》，激发了广大干部群众实现“中国梦”的热情。活动还安排了义诊、测量血压、法律咨询、急救知识普及等志愿服务。</p>"
        },
        {
          "id": "3",
          "index": 2,
          "name": "北新桥街道为企业与孵化园区架起合作桥梁",
          "pic": "3.png",
          "content": "<p>借助东城区《2015“文化+”创业大赛》的契机，2015年7月24日北新桥街道社保所工作人员与北京森科赛德科技有限公司代表一起，来到位于海运仓大厦的北京汉潮达成科技孵化器有限公司，商谈进入孵化园区事宜。</p><p>北京森科赛德科技有限公司成立于2015年3月，主营视网膜识别及互联网相关技术产业，公司创始人之一为东城区居民。由于公司刚刚成立，缺乏资金及办公场所，在街道社保所工作人员为该公司宣传市、区相关促进创业政策后，该公司对孵化园区产生了浓厚的兴趣。</p><p>此次面谈，双方就企业融资、投资（创业）导师指导、项目路演及孵化园区免费提供办公场所等园区业务进行了深入的交流，达成了初步的合作意向。</p><p>至此，该企业与孵化园区的合作桥梁平稳架起，通过提供相应的优惠政策，孵化园区也将为企业的巩固和发展保驾护航。</p>"
        },
        {
          "id": "4",
          "index": 3,
          "name": "北新桥街道开展消防安全夜查行动",
          "pic": "4.png",
          "content": "<p>北新桥街道根据区委区政府夏季火灾防控及“两大安保”消防工作的相关部署，按照区防火委关于在全区范围内组织开展消防安全夜查行动的要求，在前期全面摸排、重点整治、加强宣传的基础上，于8月5日19时至22时开展了消防安全夜查行动。</p><p>此次夜查行动共出动检查人员6人，检查企业单位11家，检查对象主要是辖区内的小网吧和小宾馆，重点检查上述企业的消防安全制度建立和执行情况、消防设施设备的配置和维护情况、以及安全用电和疏散通道方面的安全隐患。检查中发现网吧内普遍存在上网人员吸烟的现象，既违反北京市关于室内全面禁烟的相关规定，也存在一定的消防安全隐患，对此，检查人员现场进行了劝阻，并要求网吧管理人员在日常工作中加强巡视，防患未然。对于检查中发现的部分企业灭火器过期未检的问题，也已现场指出，并向企业负责人详细说明消防设施设备配置的相关规定，要求其限时进行整改。</p>"
        },
        {
          "id": "5",
          "index": 4,
          "name": "北新桥街道宣传落实“文化+”创业大赛工作",
          "pic": "5.png",
          "content": "<p>2015年7月22日，北新桥街道社保所召开社区劳动和社会保障工作会，向所辖12个社区布置了《2015年“文化+“创业大赛》工作。</p><p>通过解读东城区2015年“文化+”创业大赛工作方案，使社区劳动主任了解此次活动的目的和意义是为了促进全区形成大众创业、万众创新的局面，培养激发本地区经济社会发展新动力，实现区域创业带动就业的就业形势。</p><p>结合大赛工作方案，我社保所要求社区劳动主任在工作中做到，第一，在对辖区内失业人员实施动态管理与服务中，及时了解服务对象对就业及社会保障等各项政策的需求，广泛宣传大众创业的理念及市、区各项促进失业人员创业的优惠政策。第二，对辖区内从事文化创意产业、高新技术产业的企业单位，大力宣传本次创业大赛活动，争取更多的企业积极参与到本次大赛活动中。</p>"
        }
      ]
    },
    {
      "id": "2",
      "index": 2,
      "name": "超市",
      "short_name": "",
      "photo": [
        {
          "id": "6",
          "index": 0,
          "name": "沃尔玛",
          "pic": "6.png",
          "map": [
            {
              "lat": 39.951078,
              "lng": 116.425155
            }
          ]
        },
        {
          "id": "7",
          "index": 1,
          "name": "BHG生活超市",
          "pic": "7.png",
          "map": [
            {
              "lat": 39.955609,
              "lng": 116.425467
            }
          ]
        },
        {
          "id": "8",
          "index": 2,
          "name": "京客隆",
          "pic": "8.png",
          "map": [
            {
              "lat": 39.949211,
              "lng": 116.421797
            }
          ]
        },
        {
          "id": "9",
          "index": 3,
          "name": "物美",
          "pic": "9.png",
          "map": [
            {
              "lat": 39.946727,
              "lng": 116.417141
            }
          ]
        },
        {
          "id": "10",
          "index": 4,
          "name": "美廉美",
          "pic": "10.png",
          "map": [
            {
              "lat": 39.946957,
              "lng": 116.433063
            }
          ]
        },
        {
          "id": "11",
          "index": 5,
          "name": "家乐福",
          "pic": "11.png",
          "map": [
            {
              "lat": 39.950230,
              "lng": 116.421754
            }
          ]
        },
        {
          "id": "12",
          "index": 6,
          "name": "爱先锋",
          "pic": "12.png",
          "content": "12-0.png",
          "map": [
            {
              "lat": 39.954951,
              "lng": 116.419115
            }
          ]
        }
      ]
    },
    {
      "id": "3",
      "index": 3,
      "name": "餐饮",
      "short_name": "",
      "photo": [
        {
          "id": "13",
          "index": 0,
          "name": "麦当劳",
          "pic": "13.png",
          "content": "13-0.png",
          "map": [
            {
              "lat": 39.948997,
              "lng": 116.421475
            }
          ]
        },
        {
          "id": "14",
          "index": 1,
          "name": "宽宽美食",
          "pic": "14.png",
          "map": [
            {
              "lat": 39.953010,
              "lng": 116.422248
            }
          ]
        },
        {
          "id": "15",
          "index": 2,
          "name": "hicksnsa",
          "pic": "15.png",
          "map": [
            {
              "lat": 39.947171,
              "lng": 116.423750
            }
          ]
        },
        {
          "id": "16",
          "index": 3,
          "name": "一饭一面",
          "pic": "16.png",
          "map": [
            {
              "lat": 39.948076,
              "lng": 116.421883
            }
          ]
        },
        {
          "id": "17",
          "index": 4,
          "name": "乡下仔",
          "pic": "17.png",
          "map": [
            {
              "lat": 39.949375,
              "lng": 116.426947
            }
          ]
        },
        {
          "id": "18",
          "index": 5,
          "name": "老高头",
          "pic": "18.png",
          "map": [
            {
              "lat": 39.953767,
              "lng": 116.427612
            }
          ]
        }
      ]
    },
    {
      "id": "4",
      "index": 4,
      "name": "银行",
      "short_name": "",
      "photo": [
        {
          "id": "19",
          "index": 0,
          "name": "北京银行",
          "pic": "19.png",
          "map": [
            {
              "lat": 39.948997,
              "lng": 116.421475
            }
          ]
        },
        {
          "id": "20",
          "index": 1,
          "name": "中国建设银行",
          "pic": "20.png",
          "map": [
            {
              "lat": 39.953767,
              "lng": 116.427612
            }
          ]
        }
      ]
    },
    {
      "id": "5",
      "index": 5,
      "name": "中影院线",
      "short_name": "",
      "photo": [
        {
          "id": "21",
          "index": 0,
          "name": "中影国际影城",
          "pic": "21.png",
          "content": "21-0.png,21-1.png",
          "map": [
            {
              "lat": 39.948997,
              "lng": 116.421475
            }
          ]
        },
        {
          "id": "22",
          "index": 1,
          "name": "橙天嘉禾影城",
          "pic": "22.png",
          "map": [
            {
              "lat": 39.948076,
              "lng": 116.421883
            }
          ]
        },
        {
          "id": "23",
          "index": 2,
          "name": "CGV星星",
          "pic": "23.png",
          "map": [
            {
              "lat": 39.949375,
              "lng": 116.426947
            }
          ]
        },
        {
          "id": "24",
          "index": 3,
          "name": "大地数字影院",
          "pic": "24.png",
          "map": [
            {
              "lat": 39.953767,
              "lng": 116.427612
            }
          ]
        },
        {
          "id": "25",
          "index": 4,
          "name": "华谊兄弟",
          "pic": "25.png",
          "map": [
            {
              "lat": 39.946957,
              "lng": 116.433063
            }
          ]
        }
      ]
    },
    {
      "id": "6",
      "index": 6,
      "name": "商场",
      "short_name": ""
    },
    {
      "id": "7",
      "index": 7,
      "name": "家政",
      "short_name": ""
    },
    {
      "id": "8",
      "index": 8,
      "name": "订单详情",
      "short_name": "",
      "photo": [
        {
          "id": "31",
          "index": 0,
          "name": "麦当劳（配送中）",
          "pic": "13.png",
          "content": "13-0.png",
          "map": [
            {
              "lat": 39.948997,
              "lng": 116.421475
            }
          ]
        }
      ]
    }
  ]
}